[
  {
    "id": 833,
    "name": "Ḩeşār-e Sefīd",
    "state": "",
    "country": "IR",
    "coord": {
      "lon": 47.159401,
      "lat": 34.330502
    }
  },
  {
    "id": 2960,
    "name": "‘Ayn Ḩalāqīm",
    "state": "",
    "country": "SY",
    "coord": {
      "lon": 36.321911,
      "lat": 34.940079
    }
  },
  {
    "id": 3171168,
    "name": "Pescara",
    "state": "",
    "country": "IT",
    "coord": {
      "lon": 14.21021,
      "lat": 42.460239
    }
  },
  {
    "id": 3245,
    "name": "Taglag",
    "state": "",
    "country": "IR",
    "coord": {
      "lon": 44.98333,
      "lat": 38.450001
    }
  },
  {
    "id": 3530,
    "name": "Qabāghlū",
    "state": "",
    "country": "IR",
    "coord": {
      "lon": 46.168499,
      "lat": 36.173302
    }
  },
  {
    "id": 5174,
    "name": "‘Arīqah",
    "state": "",
    "country": "SY",
    "coord": {
      "lon": 36.48336,
      "lat": 32.889809
    }
  },
  {
    "id": 7264,
    "name": "Kalāteh-ye Dowlat",
    "state": "",
    "country": "IR",
    "coord": {
      "lon": 57.616982,
      "lat": 36.163841
    }
  },
  {
    "id": 8084,
    "name": "Behjatābād",
    "state": "",
    "country": "IR",
    "coord": {
      "lon": 51.461639,
      "lat": 36.667431
    }
  },
  {
    "id": 9874,
    "name": "Ţālesh Maḩalleh",
    "state": "",
    "country": "IR",
    "coord": {
      "lon": 50.679192,
      "lat": 36.894329
    }
  },
  {
    "id": 11263,
    "name": "Shahrīār Kandeh",
    "state": "",
    "country": "IR",
    "coord": {
      "lon": 53.19902,
      "lat": 36.631939
    }
  },
  {
    "id": 11754,
    "name": "Bālā Aḩmad Kolā",
    "state": "",
    "country": "IR",
    "coord": {
      "lon": 52.667271,
      "lat": 36.649059
    }
  },
  {
    "id": 12795,
    "name": "Aş Şūrah aş Şaghīrah",
    "state": "",
    "country": "SY",
    "coord": {
      "lon": 36.573872,
      "lat": 33.032669
    }
  },
  {
    "id": 14177,
    "name": "Āqdūz",
    "state": "",
    "country": "IR",
    "coord": {
      "lon": 44.26556,
      "lat": 39.197498
    }
  },
  {
    "id": 14256,
    "name": "Āzādshahr",
    "state": "",
    "country": "IR",
    "coord": {
      "lon": 48.570728,
      "lat": 34.790878
    }
  },
  {
    "id": 18007,
    "name": "Gollar",
    "state": "",
    "country": "IR",
    "coord": {
      "lon": 46.25,
      "lat": 37.383331
    }
  },
  {
    "id": 18093,
    "name": "Dīgāleh",
    "state": "",
    "country": "IR",
    "coord": {
      "lon": 45.106998,
      "lat": 37.552502
    }
  },
  {
    "id": 18557,
    "name": "Qarālar-e Mīrzā Ḩoseynqolī",
    "state": "",
    "country": "IR",
    "coord": {
      "lon": 45.067501,
      "lat": 37.674702
    }
  },
  {
    "id": 18918,
    "name": "Protaras",
    "state": "",
    "country": "CY",
    "coord": {
      "lon": 34.058331,
      "lat": 35.012501
    }
  },
  {
    "id": 23814,
    "name": "Kahrīz",
    "state": "",
    "country": "IR",
    "coord": {
      "lon": 47.055302,
      "lat": 34.383801
    }
  },
  {
    "id": 24851,
    "name": "Nūrābād",
    "state": "",
    "country": "IR",
    "coord": {
      "lon": 47.9725,
      "lat": 34.073399
    }
  },
  {
    "id": 29033,
    "name": "Rokan Sarā",
    "state": "",
    "country": "IR",
    "coord": {
      "lon": 49.608101,
      "lat": 37.32085
    }
  },
  {
    "id": 30321,
    "name": "Zīrjān",
    "state": "",
    "country": "IR",
    "coord": {
      "lon": 58.43586,
      "lat": 34.214401
    }
  },
  {
    "id": 30485,
    "name": "Dahasuways",
    "state": "",
    "country": "YE",
    "coord": {
      "lon": 50.729439,
      "lat": 15.72389
    }
  },
  {
    "id": 30490,
    "name": "Ash Shihr",
    "state": "",
    "country": "YE",
    "coord": {
      "lon": 49.606392,
      "lat": 14.75863
    }
  },
  {
    "id": 30543,
    "name": "Al Ghaylah",
    "state": "",
    "country": "YE",
    "coord": {
      "lon": 45.583328,
      "lat": 14.59583
    }
  },
  {
    "id": 30616,
    "name": "Judaydah",
    "state": "",
    "country": "YE",
    "coord": {
      "lon": 45.299622,
      "lat": 15.07512
    }
  },
  {
    "id": 30689,
    "name": "Dawran",
    "state": "",
    "country": "YE",
    "coord": {
      "lon": 44.441959,
      "lat": 13.77436
    }
  },
  {
    "id": 30696,
    "name": "Najd al Jumai",
    "state": "",
    "country": "YE",
    "coord": {
      "lon": 44.324139,
      "lat": 13.91581
    }
  },
  {
    "id": 30714,
    "name": "Zalmat al Alya",
    "state": "",
    "country": "YE",
    "coord": {
      "lon": 44.09404,
      "lat": 14.1023
    }
  },
  {
    "id": 30729,
    "name": "Suq ar Rabu",
    "state": "",
    "country": "YE",
    "coord": {
      "lon": 44.01511,
      "lat": 14.51155
    }
  },
  {
    "id": 30735,
    "name": "Ash Shuqayrah",
    "state": "",
    "country": "YE",
    "coord": {
      "lon": 43.786362,
      "lat": 13.13452
    }
  },
  {
    "id": 30740,
    "name": "Mashraah",
    "state": "",
    "country": "YE",
    "coord": {
      "lon": 43.99588,
      "lat": 13.53235
    }
  },
  {
    "id": 30748,
    "name": "Ar Rawnah",
    "state": "",
    "country": "YE",
    "coord": {
      "lon": 43.80286,
      "lat": 13.75638
    }
  },
  {
    "id": 30762,
    "name": "Ar Ramadi",
    "state": "",
    "country": "YE",
    "coord": {
      "lon": 43.784569,
      "lat": 13.95641
    }
  },
  {
    "id": 30777,
    "name": "Al Ahad",
    "state": "",
    "country": "YE",
    "coord": {
      "lon": 43.64167,
      "lat": 14.25833
    }
  },
  {
    "id": 30788,
    "name": "Ad Dil",
    "state": "",
    "country": "YE",
    "coord": {
      "lon": 43.818279,
      "lat": 14.67199
    }
  },
  {
    "id": 30789,
    "name": "Al Jabin",
    "state": "",
    "country": "YE",
    "coord": {
      "lon": 43.599041,
      "lat": 14.70401
    }
  },
  {
    "id": 32516,
    "name": "Badrābād-e `Olyā",
    "state": "",
    "country": "IR",
    "coord": {
      "lon": 48.279442,
      "lat": 33.42944
    }
  },
  {
    "id": 32723,
    "name": "Īstgāh-e Rāh Āhan-e Garmsār",
    "state": "",
    "country": "IR",
    "coord": {
      "lon": 52.309422,
      "lat": 35.23455
    }
  },
  {
    "id": 32767,
    "name": "Qarchak",
    "state": "",
    "country": "IR",
    "coord": {
      "lon": 51.56889,
      "lat": 35.439442
    }
  },
  {
    "id": 34703,
    "name": "Suq Sirwah",
    "state": "",
    "country": "YE",
    "coord": {
      "lon": 45.01667,
      "lat": 15.45417
    }
  },
  {
    "id": 34717,
    "name": "Majzar",
    "state": "",
    "country": "YE",
    "coord": {
      "lon": 44.775002,
      "lat": 15.85
    }
  },
  {
    "id": 34724,
    "name": "Bidbadah",
    "state": "",
    "country": "YE",
    "coord": {
      "lon": 44.700001,
      "lat": 15.425
    }
  },
  {
    "id": 34821,
    "name": "Matwah",
    "state": "",
    "country": "YE",
    "coord": {
      "lon": 43.642132,
      "lat": 15.0676
    }
  },
  {
    "id": 34827,
    "name": "Suwayr",
    "state": "",
    "country": "YE",
    "coord": {
      "lon": 43.609859,
      "lat": 16.181801
    }
  },
  {
    "id": 34846,
    "name": "Wadarah",
    "state": "",
    "country": "YE",
    "coord": {
      "lon": 43.483212,
      "lat": 15.71073
    }
  },
  {
    "id": 34862,
    "name": "Suq Shamar",
    "state": "",
    "country": "YE",
    "coord": {
      "lon": 43.368061,
      "lat": 15.885
    }
  },
  {
    "id": 34886,
    "name": "Mustaba",
    "state": "",
    "country": "YE",
    "coord": {
      "lon": 43.248951,
      "lat": 16.228161
    }
  },
  {
    "id": 34888,
    "name": "An Nazir",
    "state": "",
    "country": "YE",
    "coord": {
      "lon": 43.26226,
      "lat": 16.909161
    }
  },
  {
    "id": 34915,
    "name": "Dayr al Ḩisī",
    "state": "",
    "country": "YE",
    "coord": {
      "lon": 43.099998,
      "lat": 16.049999
    }
  },
  {
    "id": 35056,
    "name": "Tabrīz Jānī",
    "state": "",
    "country": "IR",
    "coord": {
      "lon": 46.23333,
      "lat": 38.133331
    }
  },
  {
    "id": 36741,
    "name": "Andīmeshk",
    "state": "",
    "country": "IR",
    "coord": {
      "lon": 48.383331,
      "lat": 32.533329
    }
  },
  {
    "id": 37755,
    "name": "Ravīndūzaq",
    "state": "",
    "country": "IR",
    "coord": {
      "lon": 48.080002,
      "lat": 38.4398
    }
  },
  {
    "id": 39161,
    "name": "Māmā’ī",
    "state": "",
    "country": "IR",
    "coord": {
      "lon": 54.397739,
      "lat": 36.892578
    }
  },
  {
    "id": 40847,
    "name": "Reẕāābād",
    "state": "",
    "country": "IR",
    "coord": {
      "lon": 57.31778,
      "lat": 37.499722
    }
  },
  {
    "id": 41210,
    "name": "Khorramdarreh",
    "state": "",
    "country": "IR",
    "coord": {
      "lon": 49.195999,
      "lat": 36.213001
    }
  },
  {
    "id": 41964,
    "name": "Kūchaklī",
    "state": "",
    "country": "IR",
    "coord": {
      "lon": 50.533329,
      "lat": 35.466671
    }
  },
  {
    "id": 44992,
    "name": "Koshtārgāh",
    "state": "",
    "country": "IR",
    "coord": {
      "lon": 49.166672,
      "lat": 30.549999
    }
  },
  {
    "id": 45013,
    "name": "Jozf-e Soflá",
    "state": "",
    "country": "IR",
    "coord": {
      "lon": 48.224098,
      "lat": 30.365499
    }
  },
  {
    "id": 49518,
    "name": "Republic of Rwanda",
    "state": "",
    "country": "RW",
    "coord": {
      "lon": 30.0,
      "lat": -2.0
    }
  },
  {
    "id": 49593,
    "name": "Yeed",
    "state": "",
    "country": "SO",
    "coord": {
      "lon": 43.033329,
      "lat": 4.55
    }
  },
  {
    "id": 49747,
    "name": "Xuddur",
    "state": "",
    "country": "SO",
    "coord": {
      "lon": 43.88945,
      "lat": 4.12129
    }
  },
  {
    "id": 50064,
    "name": "Xarardheere",
    "state": "",
    "country": "SO",
    "coord": {
      "lon": 47.857498,
      "lat": 4.6544
    }
  },
  {
    "id": 50360,
    "name": "Gobolka Woqooyi Galbeed",
    "state": "",
    "country": "SO",
    "coord": {
      "lon": 44.5,
      "lat": 10.0
    }
  },
  {
    "id": 50672,
    "name": "Wanlaweyn",
    "state": "",
    "country": "SO",
    "coord": {
      "lon": 44.893799,
      "lat": 2.6185
    }
  },
  {
    "id": 50814,
    "name": "Waajid",
    "state": "",
    "country": "SO",
    "coord": {
      "lon": 43.246281,
      "lat": 3.80958
    }
  },
  {
    "id": 51230,
    "name": "Gobolka Togdheer",
    "state": "",
    "country": "SO",
    "coord": {
      "lon": 45.416672,
      "lat": 9.33333
    }
  },
  {
    "id": 51299,
    "name": "Tayeeglow",
    "state": "",
    "country": "SO",
    "coord": {
      "lon": 44.51112,
      "lat": 4.01897
    }
  },
  {
    "id": 51537,
    "name": "Somalia",
    "state": "",
    "country": "SO",
    "coord": {
      "lon": 48.0,
      "lat": 6.0
    }
  },
  {
    "id": 51966,
    "name": "Gobolka Shabeellaha Hoose",
    "state": "",
    "country": "SO",
    "coord": {
      "lon": 44.416672,
      "lat": 1.83333
    }
  },
  {
    "id": 51967,
    "name": "Gobolka Shabeellaha Dhexe",
    "state": "",
    "country": "SO",
    "coord": {
      "lon": 46.0,
      "lat": 3.0
    }
  },
  {
    "id": 52187,
    "name": "Gobolka Sanaag",
    "state": "",
    "country": "SO",
    "coord": {
      "lon": 48.0,
      "lat": 10.5
    }
  },
  {
    "id": 52381,
    "name": "Saacow",
    "state": "",
    "country": "SO",
    "coord": {
      "lon": 42.440659,
      "lat": 1.62794
    }
  },
  {
    "id": 52867,
    "name": "Qoryooley",
    "state": "",
    "country": "SO",
    "coord": {
      "lon": 44.529991,
      "lat": 1.78784
    }
  },
  {
    "id": 53157,
    "name": "Qandala",
    "state": "",
    "country": "SO",
    "coord": {
      "lon": 49.872822,
      "lat": 11.47197
    }
  },
  {
    "id": 53172,
    "name": "Qaloocan",
    "state": "",
    "country": "SO",
    "coord": {
      "lon": 44.04784,
      "lat": 9.52943
    }
  },
  {
    "id": 53372,
    "name": "Oodweyne",
    "state": "",
    "country": "SO",
    "coord": {
      "lon": 45.063969,
      "lat": 9.4092
    }
  },
  {
    "id": 53477,
    "name": "Gobolka Nugaal",
    "state": "",
    "country": "SO",
    "coord": {
      "lon": 49.0,
      "lat": 8.16667
    }
  },
  {
    "id": 53654,
    "name": "Mogadishu",
    "state": "",
    "country": "SO",
    "coord": {
      "lon": 45.34375,
      "lat": 2.03711
    }
  },
  {
    "id": 53707,
    "name": "Gobolka Mudug",
    "state": "",
    "country": "SO",
    "coord": {
      "lon": 48.0,
      "lat": 7.0
    }
  },
  {
    "id": 54225,
    "name": "Marka",
    "state": "",
    "country": "SO",
    "coord": {
      "lon": 44.77166,
      "lat": 1.71594
    }
  },
  {
    "id": 54460,
    "name": "Mahaddayweyne",
    "state": "",
    "country": "SO",
    "coord": {
      "lon": 45.534698,
      "lat": 2.9726
    }
  },
  {
    "id": 54715,
    "name": "Luuq",
    "state": "",
    "country": "SO",
    "coord": {
      "lon": 42.544498,
      "lat": 3.79376
    }
  },
  {
    "id": 54746,
    "name": "Lughaye",
    "state": "",
    "country": "SO",
    "coord": {
      "lon": 43.94397,
      "lat": 10.68573
    }
  },
  {
    "id": 55223,
    "name": "Las Khorey",
    "state": "",
    "country": "SO",
    "coord": {
      "lon": 48.196701,
      "lat": 11.1595
    }
  },
  {
    "id": 55671,
    "name": "Kismayo",
    "state": "",
    "country": "SO",
    "coord": {
      "lon": 42.545361,
      "lat": -0.35817
    }
  },
  {
    "id": 56083,
    "name": "Gobolka Jubbada Hoose",
    "state": "",
    "country": "SO",
    "coord": {
      "lon": 42.0,
      "lat": 0.0
    }
  },
  {
    "id": 56084,
    "name": "Gobolka Jubbada Dhexe",
    "state": "",
    "country": "SO",
    "coord": {
      "lon": 42.666672,
      "lat": 1.33333
    }
  },
  {
    "id": 56166,
    "name": "Jilib",
    "state": "",
    "country": "SO",
    "coord": {
      "lon": 42.785351,
      "lat": 0.48829
    }
  },
  {
    "id": 56335,
    "name": "Jawhar",
    "state": "",
    "country": "SO",
    "coord": {
      "lon": 45.500481,
      "lat": 2.78087
    }
  },
  {
    "id": 56399,
    "name": "Jamaame",
    "state": "",
    "country": "SO",
    "coord": {
      "lon": 42.744968,
      "lat": 0.06968
    }
  },
  {
    "id": 56414,
    "name": "Jalalaqsi",
    "state": "",
    "country": "SO",
    "coord": {
      "lon": 45.599602,
      "lat": 3.3766
    }
  },
  {
    "id": 56505,
    "name": "Iskushuban",
    "state": "",
    "country": "SO",
    "coord": {
      "lon": 50.23,
      "lat": 10.2837
    }
  },
  {
    "id": 57000,
    "name": "Hobyo",
    "state": "",
    "country": "SO",
    "coord": {
      "lon": 48.526798,
      "lat": 5.3505
    }
  },
  {
    "id": 57060,
    "name": "Gobolka Hiiraan",
    "state": "",
    "country": "SO",
    "coord": {
      "lon": 45.5,
      "lat": 4.0
    }
  },
  {
    "id": 57289,
    "name": "Hargeysa",
    "state": "",
    "country": "SO",
    "coord": {
      "lon": 44.064999,
      "lat": 9.56
    }
  },
  {
    "id": 58802,
    "name": "Gobolka Gedo",
    "state": "",
    "country": "SO",
    "coord": {
      "lon": 42.0,
      "lat": 3.0
    }
  },
  {
    "id": 58933,
    "name": "Garoowe",
    "state": "",
    "country": "SO",
    "coord": {
      "lon": 48.484459,
      "lat": 8.40536
    }
  },
  {
    "id": 58994,
    "name": "Garbahaarrey",
    "state": "",
    "country": "SO",
    "coord": {
      "lon": 42.220909,
      "lat": 3.32892
    }
  },
  {
    "id": 59362,
    "name": "Gobolka Galguduud",
    "state": "",
    "country": "SO",
    "coord": {
      "lon": 47.0,
      "lat": 5.0
    }
  },
  {
    "id": 59611,
    "name": "Gaalkacyo",
    "state": "",
    "country": "SO",
    "coord": {
      "lon": 47.430828,
      "lat": 6.76972
    }
  },
  {
    "id": 60019,
    "name": "Eyl",
    "state": "",
    "country": "SO",
    "coord": {
      "lon": 49.816399,
      "lat": 7.9803
    }
  },
  {
    "id": 60147,
    "name": "El Dubat",
    "state": "",
    "country": "SO",
    "coord": {
      "lon": 49.083328,
      "lat": 9.51667
    }
  },
  {
    "id": 60207,
    "name": "El Ad",
    "state": "",
    "country": "SO",
    "coord": {
      "lon": 49.150002,
      "lat": 11.28333
    }
  },
  {
    "id": 60457,
    "name": "Dujuuma",
    "state": "",
    "country": "SO",
    "coord": {
      "lon": 42.573769,
      "lat": 1.25311
    }
  },
  {
    "id": 60628,
    "name": "Doon",
    "state": "",
    "country": "SO",
    "coord": {
      "lon": 43.123329,
      "lat": 11.23861
    }
  },
  {
    "id": 60928,
    "name": "Dhuusamarreeb",
    "state": "",
    "country": "SO",
    "coord": {
      "lon": 46.386108,
      "lat": 5.535
    }
  },
  {
    "id": 61993,
    "name": "Dalooldho",
    "state": "",
    "country": "SO",
    "coord": {
      "lon": 44.06229,
      "lat": 9.59271
    }
  },
  {
    "id": 62660,
    "name": "Cheli Gu",
    "state": "",
    "country": "SO",
    "coord": {
      "lon": 45.083328,
      "lat": 4.43333
    }
  },
  {
    "id": 62691,
    "name": "Ceerigaabo",
    "state": "",
    "country": "SO",
    "coord": {
      "lon": 47.36795,
      "lat": 10.61616
    }
  },
  {
    "id": 62788,
    "name": "Ceeldheer",
    "state": "",
    "country": "SO",
    "coord": {
      "lon": 47.180641,
      "lat": 3.84878
    }
  },
  {
    "id": 62821,
    "name": "Ceelbuur",
    "state": "",
    "country": "SO",
    "coord": {
      "lon": 46.617599,
      "lat": 4.68501
    }
  },
  {
    "id": 62854,
    "name": "Ceek",
    "state": "",
    "country": "SO",
    "coord": {
      "lon": 45.358238,
      "lat": 8.99907
    }
  },
  {
    "id": 63081,
    "name": "Caluula",
    "state": "",
    "country": "SO",
    "coord": {
      "lon": 50.756939,
      "lat": 11.96611
    }
  },
  {
    "id": 63344,
    "name": "Cadale",
    "state": "",
    "country": "SO",
    "coord": {
      "lon": 46.322201,
      "lat": 2.7603
    }
  },
  {
    "id": 63571,
    "name": "Buurhakaba",
    "state": "",
    "country": "SO",
    "coord": {
      "lon": 44.07806,
      "lat": 2.80257
    }
  },
  {
    "id": 63580,
    "name": "Buur Gaabo",
    "state": "",
    "country": "SO",
    "coord": {
      "lon": 41.83736,
      "lat": -1.21933
    }
  },
  {
    "id": 63689,
    "name": "Buulobarde",
    "state": "",
    "country": "SO",
    "coord": {
      "lon": 45.56744,
      "lat": 3.85375
    }
  },
  {
    "id": 63795,
    "name": "Burao",
    "state": "",
    "country": "SO",
    "coord": {
      "lon": 45.53363,
      "lat": 9.52212
    }
  },
  {
    "id": 63949,
    "name": "Bu’aale",
    "state": "",
    "country": "SO",
    "coord": {
      "lon": 42.583328,
      "lat": 1.08333
    }
  },
  {
    "id": 64013,
    "name": "Bosaso",
    "state": "",
    "country": "SO",
    "coord": {
      "lon": 49.18158,
      "lat": 11.28421
    }
  },
  {
    "id": 64412,
    "name": "Bereeda",
    "state": "",
    "country": "SO",
    "coord": {
      "lon": 51.057949,
      "lat": 11.87037
    }
  },
  {
    "id": 64435,
    "name": "Berbera",
    "state": "",
    "country": "SO",
    "coord": {
      "lon": 45.01432,
      "lat": 10.43959
    }
  },
  {
    "id": 64460,
    "name": "Beledweyne",
    "state": "",
    "country": "SO",
    "coord": {
      "lon": 45.203609,
      "lat": 4.73583
    }
  },
  {
    "id": 64480,
    "name": "Behelidle",
    "state": "",
    "country": "SO",
    "coord": {
      "lon": 42.316669,
      "lat": 2.31667
    }
  },
  {
    "id": 64536,
    "name": "Baidoa",
    "state": "",
    "country": "SO",
    "coord": {
      "lon": 43.649799,
      "lat": 3.11383
    }
  },
  {
    "id": 64538,
    "name": "Gobolka Bay",
    "state": "",
    "country": "SO",
    "coord": {
      "lon": 43.5,
      "lat": 3.0
    }
  },
  {
    "id": 64661,
    "name": "Gobolka Bari",
    "state": "",
    "country": "SO",
    "coord": {
      "lon": 50.0,
      "lat": 10.0
    }
  },
  {
    "id": 64670,
    "name": "Bargaal",
    "state": "",
    "country": "SO",
    "coord": {
      "lon": 51.077301,
      "lat": 11.28636
    }
  },
  {
    "id": 64814,
    "name": "Bandarbeyla",
    "state": "",
    "country": "SO",
    "coord": {
      "lon": 50.812199,
      "lat": 9.4942
    }
  },
  {
    "id": 64833,
    "name": "Gobolka Banaadir",
    "state": "",
    "country": "SO",
    "coord": {
      "lon": 45.400002,
      "lat": 2.11667
    }
  },
  {
    "id": 65170,
    "name": "Baardheere",
    "state": "",
    "country": "SO",
    "coord": {
      "lon": 42.27644,
      "lat": 2.34464
    }
  },
  {
    "id": 65785,
    "name": "Afgooye",
    "state": "",
    "country": "SO",
    "coord": {
      "lon": 45.121201,
      "lat": 2.1381
    }
  },
  {
    "id": 65893,
    "name": "Cadayo",
    "state": "",
    "country": "SO",
    "coord": {
      "lon": 46.372108,
      "lat": 4.39024
    }
  },
  {
    "id": 66093,
    "name": "Yasuj",
    "state": "",
    "country": "IR",
    "coord": {
      "lon": 51.587959,
      "lat": 30.66824
    }
  },
  {
    "id": 66108,
    "name": "Shāhrūd",
    "state": "",
    "country": "IR",
    "coord": {
      "lon": 55.01667,
      "lat": 36.416672
    }
  },
  {
    "id": 69349,
    "name": "‘Abbāsābād-e Qūsheh",
    "state": "",
    "country": "IR",
    "coord": {
      "lon": 59.216671,
      "lat": 32.866669
    }
  },
  {
    "id": 69372,
    "name": "At Tawilah",
    "state": "",
    "country": "YE",
    "coord": {
      "lon": 43.74778,
      "lat": 15.49389
    }
  },
  {
    "id": 69426,
    "name": "Zinjibar",
    "state": "",
    "country": "YE",
    "coord": {
      "lon": 45.38073,
      "lat": 13.12871
    }
  },
  {
    "id": 69457,
    "name": "Zarajah",
    "state": "",
    "country": "YE",
    "coord": {
      "lon": 44.378681,
      "lat": 14.86692
    }
  },
  {
    "id": 69482,
    "name": "Az Zahir",
    "state": "",
    "country": "YE",
    "coord": {
      "lon": 45.48333,
      "lat": 13.96667
    }
  },
  {
    "id": 69499,
    "name": "Zabīd",
    "state": "",
    "country": "YE",
    "coord": {
      "lon": 43.368408,
      "lat": 14.27742
    }
  },
  {
    "id": 69500,
    "name": "Zabid",
    "state": "",
    "country": "YE",
    "coord": {
      "lon": 43.315182,
      "lat": 14.1951
    }
  },
  {
    "id": 69537,
    "name": "Yufrus",
    "state": "",
    "country": "YE",
    "coord": {
      "lon": 43.947041,
      "lat": 13.45529
    }
  },
  {
    "id": 69543,
    "name": "Republic of Yemen",
    "state": "",
    "country": "YE",
    "coord": {
      "lon": 47.5,
      "lat": 15.5
    }
  },
  {
    "id": 69558,
    "name": "Yarīm",
    "state": "",
    "country": "YE",
    "coord": {
      "lon": 44.31176,
      "lat": 14.25388
    }
  },
  {
    "id": 69559,
    "name": "Yarim",
    "state": "",
    "country": "YE",
    "coord": {
      "lon": 44.377949,
      "lat": 14.29804
    }
  },
  {
    "id": 69640,
    "name": "Washhah",
    "state": "",
    "country": "YE",
    "coord": {
      "lon": 43.41066,
      "lat": 16.307739
    }
  },
  {
    "id": 69684,
    "name": "Walan",
    "state": "",
    "country": "YE",
    "coord": {
      "lon": 44.276409,
      "lat": 15.07021
    }
  },
  {
    "id": 69686,
    "name": "Dhi Jalal",
    "state": "",
    "country": "YE",
    "coord": {
      "lon": 44.707539,
      "lat": 13.62378
    }
  },
  {
    "id": 69769,
    "name": "Usaylan",
    "state": "",
    "country": "YE",
    "coord": {
      "lon": 45.82832,
      "lat": 15.03201
    }
  },
  {
    "id": 69944,
    "name": "Ubal",
    "state": "",
    "country": "YE",
    "coord": {
      "lon": 43.544441,
      "lat": 14.98808
    }
  },
  {
    "id": 70080,
    "name": "Thamud",
    "state": "",
    "country": "YE",
    "coord": {
      "lon": 49.916672,
      "lat": 17.299999
    }
  },
  {
    "id": 70160,
    "name": "Tarim",
    "state": "",
    "country": "YE",
    "coord": {
      "lon": 48.99889,
      "lat": 16.05694
    }
  },
  {
    "id": 70221,
    "name": "At Ta‘izzīyah",
    "state": "",
    "country": "YE",
    "coord": {
      "lon": 44.009411,
      "lat": 13.69479
    }
  },
  {
    "id": 70222,
    "name": "Muḩāfaz̧at Ta‘izz",
    "state": "",
    "country": "YE",
    "coord": {
      "lon": 44.0,
      "lat": 13.5
    }
  },
  {
    "id": 70223,
    "name": "Ta‘izz",
    "state": "",
    "country": "YE",
    "coord": {
      "lon": 44.033329,
      "lat": 14.78333
    }
  },
  {
    "id": 70225,
    "name": "Taizz",
    "state": "",
    "country": "YE",
    "coord": {
      "lon": 44.020908,
      "lat": 13.57952
    }
  },
  {
    "id": 70272,
    "name": "As Suwayda",
    "state": "",
    "country": "YE",
    "coord": {
      "lon": 45.2304,
      "lat": 13.78694
    }
  },
  {
    "id": 70346,
    "name": "Al Anan",
    "state": "",
    "country": "YE",
    "coord": {
      "lon": 44.312519,
      "lat": 16.72188
    }
  },
  {
    "id": 70357,
    "name": "Abs",
    "state": "",
    "country": "YE",
    "coord": {
      "lon": 43.197239,
      "lat": 16.002951
    }
  },
  {
    "id": 70551,
    "name": "Sif",
    "state": "",
    "country": "YE",
    "coord": {
      "lon": 48.330002,
      "lat": 15.31389
    }
  },
  {
    "id": 70600,
    "name": "Shuḩayr",
    "state": "",
    "country": "YE",
    "coord": {
      "lon": 49.392502,
      "lat": 14.68417
    }
  },
  {
    "id": 70656,
    "name": "Shihan as Sufla",
    "state": "",
    "country": "YE",
    "coord": {
      "lon": 52.48925,
      "lat": 17.769991
    }
  },
  {
    "id": 70677,
    "name": "Shibam",
    "state": "",
    "country": "YE",
    "coord": {
      "lon": 43.904449,
      "lat": 15.50943
    }
  },
  {
    "id": 70759,
    "name": "Ash Sharyah",
    "state": "",
    "country": "YE",
    "coord": {
      "lon": 45.022442,
      "lat": 14.35659
    }
  },
  {
    "id": 70808,
    "name": "Sharas",
    "state": "",
    "country": "YE",
    "coord": {
      "lon": 43.64925,
      "lat": 15.71233
    }
  },
  {
    "id": 70910,
    "name": "Shaharat al Ghis",
    "state": "",
    "country": "YE",
    "coord": {
      "lon": 43.702278,
      "lat": 16.184111
    }
  },
  {
    "id": 70935,
    "name": "Muḩāfaz̧at Shabwah",
    "state": "",
    "country": "YE",
    "coord": {
      "lon": 47.0,
      "lat": 15.0
    }
  },
  {
    "id": 70979,
    "name": "Sayyan",
    "state": "",
    "country": "YE",
    "coord": {
      "lon": 44.324421,
      "lat": 15.17177
    }
  },
  {
    "id": 71005,
    "name": "Sayhut",
    "state": "",
    "country": "YE",
    "coord": {
      "lon": 51.24556,
      "lat": 15.21056
    }
  },
  {
    "id": 71131,
    "name": "Sanhan",
    "state": "",
    "country": "YE",
    "coord": {
      "lon": 44.305698,
      "lat": 15.2252
    }
  },
  {
    "id": 71132,
    "name": "Sanaa",
    "state": "",
    "country": "YE",
    "coord": {
      "lon": 44.4249,
      "lat": 15.26069
    }
  },
  {
    "id": 71136,
    "name": "Sana",
    "state": "",
    "country": "YE",
    "coord": {
      "lon": 47.76667,
      "lat": 15.4
    }
  },
  {
    "id": 71137,
    "name": "Sanaa",
    "state": "",
    "country": "YE",
    "coord": {
      "lon": 44.206669,
      "lat": 15.35472
    }
  },
  {
    "id": 71273,
    "name": "Sahar",
    "state": "",
    "country": "YE",
    "coord": {
      "lon": 44.308578,
      "lat": 15.31586
    }
  },
  {
    "id": 71282,
    "name": "Sah",
    "state": "",
    "country": "YE",
    "coord": {
      "lon": 48.850559,
      "lat": 15.57722
    }
  },
  {
    "id": 71333,
    "name": "Muḩāfaz̧at Şa‘dah",
    "state": "",
    "country": "YE",
    "coord": {
      "lon": 43.914879,
      "lat": 17.0634
    }
  },
  {
    "id": 71334,
    "name": "Sadah",
    "state": "",
    "country": "YE",
    "coord": {
      "lon": 43.763939,
      "lat": 16.94021
    }
  },
  {
    "id": 71481,
    "name": "Rihab",
    "state": "",
    "country": "YE",
    "coord": {
      "lon": 44.188141,
      "lat": 14.22762
    }
  },
  {
    "id": 71491,
    "name": "Rada",
    "state": "",
    "country": "YE",
    "coord": {
      "lon": 44.83709,
      "lat": 14.4151
    }
  },
  {
    "id": 71532,
    "name": "Muḩāfaz̧at Raymah",
    "state": "",
    "country": "YE",
    "coord": {
      "lon": 43.666672,
      "lat": 14.63333
    }
  },
  {
    "id": 71549,
    "name": "Ar Raydah",
    "state": "",
    "country": "YE",
    "coord": {
      "lon": 50.479172,
      "lat": 15.035
    }
  },
  {
    "id": 71558,
    "name": "Raydah",
    "state": "",
    "country": "YE",
    "coord": {
      "lon": 44.040852,
      "lat": 15.81421
    }
  },
  {
    "id": 71622,
    "name": "Rakkat al ‘Askarī",
    "state": "",
    "country": "YE",
    "coord": {
      "lon": 44.48333,
      "lat": 16.15
    }
  },
  {
    "id": 71687,
    "name": "Rudum",
    "state": "",
    "country": "YE",
    "coord": {
      "lon": 47.743141,
      "lat": 14.0851
    }
  },
  {
    "id": 71799,
    "name": "Qulansiyah",
    "state": "",
    "country": "YE",
    "coord": {
      "lon": 53.48333,
      "lat": 12.68333
    }
  },
  {
    "id": 71834,
    "name": "Qishn",
    "state": "",
    "country": "YE",
    "coord": {
      "lon": 51.681389,
      "lat": 15.42278
    }
  },
  {
    "id": 71904,
    "name": "Qatabah",
    "state": "",
    "country": "YE",
    "coord": {
      "lon": 44.705799,
      "lat": 13.85493
    }
  },
  {
    "id": 72181,
    "name": "Nisab",
    "state": "",
    "country": "YE",
    "coord": {
      "lon": 46.5,
      "lat": 14.51667
    }
  },
  {
    "id": 72430,
    "name": "Al Musaymir",
    "state": "",
    "country": "YE",
    "coord": {
      "lon": 44.61528,
      "lat": 13.44389
    }
  },
  {
    "id": 72519,
    "name": "Mukayras",
    "state": "",
    "country": "YE",
    "coord": {
      "lon": 45.670738,
      "lat": 13.94428
    }
  },
  {
    "id": 72557,
    "name": "Mudiyah",
    "state": "",
    "country": "YE",
    "coord": {
      "lon": 46.082539,
      "lat": 13.9284
    }
  },
  {
    "id": 72561,
    "name": "Markaz Mudhaykirah",
    "state": "",
    "country": "YE",
    "coord": {
      "lon": 43.9688,
      "lat": 13.88953
    }
  },
  {
    "id": 72589,
    "name": "Morī",
    "state": "",
    "country": "YE",
    "coord": {
      "lon": 53.900002,
      "lat": 12.63333
    }
  },
  {
    "id": 72647,
    "name": "Manwakh",
    "state": "",
    "country": "YE",
    "coord": {
      "lon": 48.109169,
      "lat": 16.807779
    }
  },
  {
    "id": 72746,
    "name": "Mayfaah",
    "state": "",
    "country": "YE",
    "coord": {
      "lon": 47.561199,
      "lat": 14.27042
    }
  },
  {
    "id": 72752,
    "name": "Maidi",
    "state": "",
    "country": "YE",
    "coord": {
      "lon": 42.812988,
      "lat": 16.321011
    }
  },
  {
    "id": 72760,
    "name": "Mawza",
    "state": "",
    "country": "YE",
    "coord": {
      "lon": 43.50993,
      "lat": 13.26831
    }
  },
  {
    "id": 72781,
    "name": "Mawiyah",
    "state": "",
    "country": "YE",
    "coord": {
      "lon": 44.347679,
      "lat": 13.58294
    }
  },
  {
    "id": 72855,
    "name": "Al Jawl",
    "state": "",
    "country": "YE",
    "coord": {
      "lon": 48.280659,
      "lat": 14.45625
    }
  },
  {
    "id": 72965,
    "name": "Marib City",
    "state": "",
    "country": "YE",
    "coord": {
      "lon": 45.303398,
      "lat": 15.4156
    }
  },
  {
    "id": 72966,
    "name": "Muḩāfaz̧at Ma’rib",
    "state": "",
    "country": "YE",
    "coord": {
      "lon": 45.32534,
      "lat": 15.4591
    }
  },
  {
    "id": 72968,
    "name": "Ma'rib",
    "state": "",
    "country": "YE",
    "coord": {
      "lon": 45.325809,
      "lat": 15.46253
    }
  },
  {
    "id": 73091,
    "name": "Manakhah",
    "state": "",
    "country": "YE",
    "coord": {
      "lon": 43.741562,
      "lat": 15.07422
    }
  },
  {
    "id": 73100,
    "name": "Milah",
    "state": "",
    "country": "YE",
    "coord": {
      "lon": 44.786221,
      "lat": 14.41617
    }
  },
  {
    "id": 73125,
    "name": "Al Malahit",
    "state": "",
    "country": "YE",
    "coord": {
      "lon": 43.275822,
      "lat": 16.76848
    }
  },
  {
    "id": 73325,
    "name": "Al Mafud",
    "state": "",
    "country": "YE",
    "coord": {
      "lon": 47.252171,
      "lat": 15.34264
    }
  },
  {
    "id": 73331,
    "name": "Mafhaq",
    "state": "",
    "country": "YE",
    "coord": {
      "lon": 43.903042,
      "lat": 15.10162
    }
  },
  {
    "id": 73365,
    "name": "Al Madid",
    "state": "",
    "country": "YE",
    "coord": {
      "lon": 44.47337,
      "lat": 15.64453
    }
  },
  {
    "id": 73409,
    "name": "Mabar",
    "state": "",
    "country": "YE",
    "coord": {
      "lon": 44.293541,
      "lat": 14.79395
    }
  },
  {
    "id": 73422,
    "name": "Al Maalla",
    "state": "",
    "country": "YE",
    "coord": {
      "lon": 45.002441,
      "lat": 12.78987
    }
  },
  {
    "id": 73504,
    "name": "Lawdar",
    "state": "",
    "country": "YE",
    "coord": {
      "lon": 45.868591,
      "lat": 13.88282
    }
  },
  {
    "id": 73560,
    "name": "Lahij",
    "state": "",
    "country": "YE",
    "coord": {
      "lon": 44.881939,
      "lat": 13.05667
    }
  },
  {
    "id": 73638,
    "name": "Kuhlan Afar",
    "state": "",
    "country": "YE",
    "coord": {
      "lon": 43.719021,
      "lat": 15.73309
    }
  },
  {
    "id": 73650,
    "name": "Kuaydinah",
    "state": "",
    "country": "YE",
    "coord": {
      "lon": 43.3372,
      "lat": 15.82104
    }
  },
  {
    "id": 73668,
    "name": "Kitaf",
    "state": "",
    "country": "YE",
    "coord": {
      "lon": 44.109051,
      "lat": 17.031651
    }
  },
  {
    "id": 73685,
    "name": "Kilmia",
    "state": "",
    "country": "YE",
    "coord": {
      "lon": 52.233318,
      "lat": 12.18576
    }
  },
  {
    "id": 73786,
    "name": "Khawr Maksar",
    "state": "",
    "country": "YE",
    "coord": {
      "lon": 45.033371,
      "lat": 12.81227
    }
  },
  {
    "id": 73788,
    "name": "Khawrah",
    "state": "",
    "country": "YE",
    "coord": {
      "lon": 46.15435,
      "lat": 14.43201
    }
  },
  {
    "id": 73861,
    "name": "Khamir",
    "state": "",
    "country": "YE",
    "coord": {
      "lon": 43.953621,
      "lat": 15.98792
    }
  },
  {
    "id": 74116,
    "name": "Juban",
    "state": "",
    "country": "YE",
    "coord": {
      "lon": 44.874599,
      "lat": 14.01164
    }
  },
  {
    "id": 74167,
    "name": "Jihanah",
    "state": "",
    "country": "YE",
    "coord": {
      "lon": 44.482441,
      "lat": 15.22628
    }
  },
  {
    "id": 74185,
    "name": "Jiblah",
    "state": "",
    "country": "YE",
    "coord": {
      "lon": 44.146679,
      "lat": 13.92162
    }
  },
  {
    "id": 74219,
    "name": "Jawf al Maqbabah",
    "state": "",
    "country": "YE",
    "coord": {
      "lon": 45.834881,
      "lat": 13.83783
    }
  },
  {
    "id": 74222,
    "name": "Muḩāfaz̧at al Jawf",
    "state": "",
    "country": "YE",
    "coord": {
      "lon": 45.5243,
      "lat": 16.597401
    }
  },
  {
    "id": 74368,
    "name": "Jaar",
    "state": "",
    "country": "YE",
    "coord": {
      "lon": 45.30558,
      "lat": 13.223
    }
  },
  {
    "id": 74475,
    "name": "Ibb",
    "state": "",
    "country": "YE",
    "coord": {
      "lon": 44.155079,
      "lat": 14.03356
    }
  },
  {
    "id": 74477,
    "name": "Ibb",
    "state": "",
    "country": "YE",
    "coord": {
      "lon": 44.183331,
      "lat": 13.96667
    }
  },
  {
    "id": 74490,
    "name": "Huth",
    "state": "",
    "country": "YE",
    "coord": {
      "lon": 43.96854,
      "lat": 16.23114
    }
  },
  {
    "id": 74499,
    "name": "As Salasil",
    "state": "",
    "country": "YE",
    "coord": {
      "lon": 48.831532,
      "lat": 16.479589
    }
  },
  {
    "id": 74785,
    "name": "Al Abr",
    "state": "",
    "country": "YE",
    "coord": {
      "lon": 47.23333,
      "lat": 16.133329
    }
  },
  {
    "id": 74906,
    "name": "Hays",
    "state": "",
    "country": "YE",
    "coord": {
      "lon": 43.483101,
      "lat": 13.9317
    }
  },
  {
    "id": 74938,
    "name": "Hayfan",
    "state": "",
    "country": "YE",
    "coord": {
      "lon": 44.280109,
      "lat": 13.31778
    }
  },
  {
    "id": 75000,
    "name": "Hawf",
    "state": "",
    "country": "YE",
    "coord": {
      "lon": 53.033329,
      "lat": 16.633329
    }
  },
  {
    "id": 75034,
    "name": "Haswayn",
    "state": "",
    "country": "YE",
    "coord": {
      "lon": 52.102219,
      "lat": 15.59194
    }
  },
  {
    "id": 75133,
    "name": "Harib",
    "state": "",
    "country": "YE",
    "coord": {
      "lon": 45.503559,
      "lat": 14.93156
    }
  },
  {
    "id": 75163,
    "name": "Harad",
    "state": "",
    "country": "YE",
    "coord": {
      "lon": 43.05883,
      "lat": 16.409651
    }
  },
  {
    "id": 75239,
    "name": "Hammam Ali",
    "state": "",
    "country": "YE",
    "coord": {
      "lon": 44.147629,
      "lat": 14.66371
    }
  },
  {
    "id": 75334,
    "name": "Ḩajjah",
    "state": "",
    "country": "YE",
    "coord": {
      "lon": 43.6063,
      "lat": 15.63287
    }
  },
  {
    "id": 75337,
    "name": "Hajjah",
    "state": "",
    "country": "YE",
    "coord": {
      "lon": 43.60582,
      "lat": 15.69425
    }
  },
  {
    "id": 75357,
    "name": "Madinat Labus",
    "state": "",
    "country": "YE",
    "coord": {
      "lon": 45.25,
      "lat": 13.86667
    }
  },
  {
    "id": 75411,
    "name": "Muḩāfaz̧at Ḩaḑramawt",
    "state": "",
    "country": "YE",
    "coord": {
      "lon": 49.0,
      "lat": 16.0
    }
  },
  {
    "id": 75427,
    "name": "Tamrida",
    "state": "",
    "country": "YE",
    "coord": {
      "lon": 54.033329,
      "lat": 12.65
    }
  },
  {
    "id": 75504,
    "name": "Habil al Jabr",
    "state": "",
    "country": "YE",
    "coord": {
      "lon": 44.985779,
      "lat": 13.60422
    }
  },
  {
    "id": 75508,
    "name": "Al Habilayn",
    "state": "",
    "country": "YE",
    "coord": {
      "lon": 44.850761,
      "lat": 13.52002
    }
  },
  {
    "id": 75518,
    "name": "Habban",
    "state": "",
    "country": "YE",
    "coord": {
      "lon": 47.076488,
      "lat": 14.35411
    }
  },
  {
    "id": 75539,
    "name": "Hababah",
    "state": "",
    "country": "YE",
    "coord": {
      "lon": 43.875629,
      "lat": 15.54418
    }
  },
  {
    "id": 75618,
    "name": "Ghayl Ba Wazir",
    "state": "",
    "country": "YE",
    "coord": {
      "lon": 49.366112,
      "lat": 14.77611
    }
  },
  {
    "id": 76089,
    "name": "Dhubab",
    "state": "",
    "country": "YE",
    "coord": {
      "lon": 43.41024,
      "lat": 12.94305
    }
  },
  {
    "id": 76125,
    "name": "Dhi Naim",
    "state": "",
    "country": "YE",
    "coord": {
      "lon": 45.448071,
      "lat": 14.10574
    }
  },
  {
    "id": 76147,
    "name": "Dhaybin",
    "state": "",
    "country": "YE",
    "coord": {
      "lon": 44.129169,
      "lat": 15.97712
    }
  },
  {
    "id": 76153,
    "name": "Dhī as Sufāl",
    "state": "",
    "country": "YE",
    "coord": {
      "lon": 44.077751,
      "lat": 13.82137
    }
  },
  {
    "id": 76154,
    "name": "Dhi as Sufal",
    "state": "",
    "country": "YE",
    "coord": {
      "lon": 44.114689,
      "lat": 13.83446
    }
  },
  {
    "id": 76182,
    "name": "Madīnat Dhamār",
    "state": "",
    "country": "YE",
    "coord": {
      "lon": 44.403389,
      "lat": 14.60684
    }
  },
  {
    "id": 76183,
    "name": "Muḩāfaz̧at Dhamār",
    "state": "",
    "country": "YE",
    "coord": {
      "lon": 44.272942,
      "lat": 14.68296
    }
  },
  {
    "id": 76184,
    "name": "Dhamar",
    "state": "",
    "country": "YE",
    "coord": {
      "lon": 44.40514,
      "lat": 14.54274
    }
  },
  {
    "id": 76362,
    "name": "Dawran ad Daydah",
    "state": "",
    "country": "YE",
    "coord": {
      "lon": 44.206638,
      "lat": 14.73927
    }
  },
  {
    "id": 76482,
    "name": "Dar an Nasr",
    "state": "",
    "country": "YE",
    "coord": {
      "lon": 44.016338,
      "lat": 13.55821
    }
  },
  {
    "id": 76699,
    "name": "Burum",
    "state": "",
    "country": "YE",
    "coord": {
      "lon": 48.979721,
      "lat": 14.36361
    }
  },
  {
    "id": 76927,
    "name": "Bayt Adhaqah",
    "state": "",
    "country": "YE",
    "coord": {
      "lon": 43.702278,
      "lat": 15.61576
    }
  },
  {
    "id": 76930,
    "name": "As Suq al Jadid",
    "state": "",
    "country": "YE",
    "coord": {
      "lon": 44.062038,
      "lat": 15.82496
    }
  },
  {
    "id": 76989,
    "name": "Bayt al Faqīh",
    "state": "",
    "country": "YE",
    "coord": {
      "lon": 43.278149,
      "lat": 14.48738
    }
  },
  {
    "id": 76991,
    "name": "Bayt al Faqih",
    "state": "",
    "country": "YE",
    "coord": {
      "lon": 43.324459,
      "lat": 14.51635
    }
  },
  {
    "id": 77017,
    "name": "Bayhan",
    "state": "",
    "country": "YE",
    "coord": {
      "lon": 45.718891,
      "lat": 14.80067
    }
  },
  {
    "id": 77278,
    "name": "Bani Hujjaj",
    "state": "",
    "country": "YE",
    "coord": {
      "lon": 43.316669,
      "lat": 15.41667
    }
  },
  {
    "id": 77307,
    "name": "Bani Bakr",
    "state": "",
    "country": "YE",
    "coord": {
      "lon": 45.26667,
      "lat": 13.93333
    }
  },
  {
    "id": 77407,
    "name": "Bājil",
    "state": "",
    "country": "YE",
    "coord": {
      "lon": 43.1735,
      "lat": 15.07561
    }
  },
  {
    "id": 77408,
    "name": "Bajil",
    "state": "",
    "country": "YE",
    "coord": {
      "lon": 43.285061,
      "lat": 15.05835
    }
  },
  {
    "id": 77504,
    "name": "Az Zuhrah",
    "state": "",
    "country": "YE",
    "coord": {
      "lon": 42.995819,
      "lat": 15.72377
    }
  },
  {
    "id": 77515,
    "name": "Az Zaydiyah",
    "state": "",
    "country": "YE",
    "coord": {
      "lon": 43.008121,
      "lat": 15.32851
    }
  },
  {
    "id": 77529,
    "name": "Az Zahir",
    "state": "",
    "country": "YE",
    "coord": {
      "lon": 44.488178,
      "lat": 16.317989
    }
  },
  {
    "id": 77594,
    "name": "Al Hajab",
    "state": "",
    "country": "YE",
    "coord": {
      "lon": 45.529041,
      "lat": 14.85192
    }
  },
  {
    "id": 77636,
    "name": "Al Awabil",
    "state": "",
    "country": "YE",
    "coord": {
      "lon": 44.864311,
      "lat": 13.83754
    }
  },
  {
    "id": 77646,
    "name": "At Turbah",
    "state": "",
    "country": "YE",
    "coord": {
      "lon": 44.124149,
      "lat": 13.2127
    }
  },
  {
    "id": 77655,
    "name": "Al Tuhayta",
    "state": "",
    "country": "YE",
    "coord": {
      "lon": 43.226372,
      "lat": 14.18356
    }
  },
  {
    "id": 77662,
    "name": "At Tawahi",
    "state": "",
    "country": "YE",
    "coord": {
      "lon": 44.980202,
      "lat": 12.78471
    }
  },
  {
    "id": 77726,
    "name": "Ataq",
    "state": "",
    "country": "YE",
    "coord": {
      "lon": 46.831871,
      "lat": 14.53766
    }
  },
  {
    "id": 77772,
    "name": "As Sudah",
    "state": "",
    "country": "YE",
    "coord": {
      "lon": 43.78083,
      "lat": 15.95861
    }
  },
  {
    "id": 77791,
    "name": "As Sayyani",
    "state": "",
    "country": "YE",
    "coord": {
      "lon": 44.17395,
      "lat": 13.84266
    }
  },
  {
    "id": 77800,
    "name": "As Sawmaah",
    "state": "",
    "country": "YE",
    "coord": {
      "lon": 45.801022,
      "lat": 14.08505
    }
  },
  {
    "id": 77803,
    "name": "Al Bilad",
    "state": "",
    "country": "YE",
    "coord": {
      "lon": 49.291672,
      "lat": 16.13806
    }
  },
  {
    "id": 77809,
    "name": "As Sawadiyah",
    "state": "",
    "country": "YE",
    "coord": {
      "lon": 45.221481,
      "lat": 14.30113
    }
  },
  {
    "id": 77843,
    "name": "As Salif",
    "state": "",
    "country": "YE",
    "coord": {
      "lon": 42.67067,
      "lat": 15.30558
    }
  },
  {
    "id": 77862,
    "name": "Said",
    "state": "",
    "country": "YE",
    "coord": {
      "lon": 46.872921,
      "lat": 14.33011
    }
  },
  {
    "id": 77872,
    "name": "As Safaqayn",
    "state": "",
    "country": "YE",
    "coord": {
      "lon": 43.421211,
      "lat": 15.37897
    }
  },
  {
    "id": 77881,
    "name": "As Saddah",
    "state": "",
    "country": "YE",
    "coord": {
      "lon": 44.421391,
      "lat": 14.1221
    }
  },
  {
    "id": 77940,
    "name": "Ash Shaykh Uthman",
    "state": "",
    "country": "YE",
    "coord": {
      "lon": 44.993092,
      "lat": 12.87678
    }
  },
  {
    "id": 77946,
    "name": "Ash Shatt",
    "state": "",
    "country": "YE",
    "coord": {
      "lon": 44.035709,
      "lat": 12.89357
    }
  },
  {
    "id": 77980,
    "name": "Ash Shahil",
    "state": "",
    "country": "YE",
    "coord": {
      "lon": 43.404949,
      "lat": 15.86656
    }
  }
]
